{"type":"FeatureCollection","features":[{"type":"Feature","geometry":{"type":"Point","coordinates":[9.067046642303467,36.94599905822196]},"properties":{"name":"Bir El Krouna","IHPLC_ANN":1988,"IHPLC_SBV":40,"IHPLC_CAP":35000,"IHPLC_COU":32000,"IHPLC_DELE":"NEFZA","IHPLC_SECT":"Jamila","IHPLC_N":"Bir El Krouna","X":505967,"Y":4088589}},{"type":"Feature","geometry":{"type":"Point","coordinates":[9.316725831265572,36.71378497249236,37.94791631214321]},"properties":{"name":"Sidi Mbarek","IHPLC_ANN":1990,"IHPLC_SBV":187,"IHPLC_CAP":96000,"IHPLC_COU":87100,"IHPLC_DELE":"BEJA NORD","IHPLC_SECT":"El Munchar","IHPLC_N":"Sidi Mbarek","X":528239,"Y":4062713}},{"type":"Feature","geometry":{"type":"Point","coordinates":[9.644668464473206,36.56032157646324,37.73032967932522]},"properties":{"name":"O. El Ouaer","IHPLC_ANN":1991,"IHPLC_SBV":100,"IHPLC_CAP":67000,"IHPLC_COU":143900,"IHPLC_DELE":"GOUBELLAT","IHPLC_SECT":"Gammarti","IHPLC_N":"O. El Ouaer","X":557642,"Y":4045836}},{"type":"Feature","geometry":{"type":"Point","coordinates":[9.61600231124548,36.5423378176426,37.65817623957992]},"properties":{"name":"O. El - Mourra","IHPLC_ANN":1991,"IHPLC_SBV":200,"IHPLC_CAP":68000,"IHPLC_COU":163700,"IHPLC_DELE":"GOUBELLAT","IHPLC_SECT":"Grem","IHPLC_N":"O. El - Mourra","X":555090,"Y":4043824}},{"type":"Feature","geometry":{"type":"Point","coordinates":[9.16288503032094,36.57545120532978,37.44399248622358]},"properties":{"name":"Ain Elharra","IHPLC_ANN":1992,"IHPLC_SBV":165,"IHPLC_CAP":160000,"IHPLC_COU":218500,"IHPLC_DELE":"BEJA SUD","IHPLC_SECT":"Sidi Smaïl","IHPLC_N":"Ain Elharra","X":514526,"Y":4047333}},{"type":"Feature","geometry":{"type":"Point","coordinates":[9.248972784223408,36.56870046751858,37.48234006483108]},"properties":{"name":"Dar Rouman","IHPLC_ANN":1992,"IHPLC_SBV":66,"IHPLC_CAP":40000,"IHPLC_COU":40000,"IHPLC_DELE":"TESTOUR","IHPLC_SECT":"Zeldou","IHPLC_N":"Dar Rouman","X":522230,"Y":4046601}},{"type":"Feature","geometry":{"type":"Point","coordinates":[9.112397588121528,36.67375449310804,37.69489317853004]},"properties":{"name":"Dmina1","IHPLC_ANN":1992,"IHPLC_SBV":50,"IHPLC_CAP":8000,"IHPLC_COU":19300,"IHPLC_DELE":"BEJA SUD","IHPLC_SECT":"Zouagha","IHPLC_N":"Dmina1","X":509996,"Y":4058231}},{"type":"Feature","geometry":{"type":"Point","coordinates":[9.115746252241884,36.66903992076683,37.68348922580481]},"properties":{"name":"Dmina2","IHPLC_ANN":1992,"IHPLC_SBV":30,"IHPLC_CAP":5000,"IHPLC_COU":17700,"IHPLC_DELE":"BEJA SUD","IHPLC_SECT":"Zouagha","IHPLC_N":"Dmina2","X":510296,"Y":4057709}},{"type":"Feature","geometry":{"type":"Point","coordinates":[9.153931130375813,36.66530752071505,37.69818087946624]},"properties":{"name":"O.Torech","IHPLC_ANN":1992,"IHPLC_SBV":60,"IHPLC_CAP":15000,"IHPLC_COU":38600,"IHPLC_DELE":"BEJA SUD","IHPLC_SECT":"Hammam Sayala","IHPLC_N":"O.Torech","X":513709,"Y":4057300}},{"type":"Feature","geometry":{"type":"Point","coordinates":[9.316006811101364,36.71557345611815,37.95259162411094]},"properties":{"name":"O. El Boul","IHPLC_ANN":1992,"IHPLC_SBV":110,"IHPLC_CAP":125000,"IHPLC_COU":176200,"IHPLC_DELE":"BEJA NORD","IHPLC_SECT":"El Munchar","IHPLC_N":"O. El Boul","X":528175,"Y":4062911}},{"type":"Feature","geometry":{"type":"Point","coordinates":[9.183102813293207,36.51163090774779,37.27239296212792]},"properties":{"name":"Ain Hamra","IHPLC_ANN":1992,"IHPLC_SBV":225,"IHPLC_CAP":60000,"IHPLC_COU":175800,"IHPLC_DELE":"TEBOURSOUK","IHPLC_SECT":"Aïn melliti","IHPLC_N":"Ain Hamra","X":516348,"Y":4040257}},{"type":"Feature","geometry":{"type":"Point","coordinates":[9.505930388979177,36.7220158566968,38.10117210447788]},"properties":{"name":"O.El Melah","IHPLC_ANN":1992,"IHPLC_SBV":216,"IHPLC_CAP":90000,"IHPLC_COU":167700,"IHPLC_DELE":"MEDJEZ EL BAB","IHPLC_SECT":"Toukaber","IHPLC_N":"O.El Melah","X":545132,"Y":4063698}},{"type":"Feature","geometry":{"type":"Point","coordinates":[9.183192388584231,36.57908199115146,37.46813606657088]},"properties":{"name":"O. Swawikh","IHPLC_ANN":1993,"IHPLC_SBV":150,"IHPLC_CAP":60000,"IHPLC_COU":134900,"IHPLC_DELE":"BEJA SUD","IHPLC_SECT":"Sidi Smaïl","IHPLC_N":"O. Swawikh","X":516342,"Y":4047739}},{"type":"Feature","geometry":{"type":"Point","coordinates":[9.248796338536627,36.4381778636448,37.10321080312133]},"properties":{"name":"O. El Morsaline","IHPLC_ANN":1993,"IHPLC_SBV":543,"IHPLC_CAP":195000,"IHPLC_COU":323100,"IHPLC_DELE":"TEBOURSOUK","IHPLC_SECT":"Menchia","IHPLC_N":"O. El Morsaline","X":522252,"Y":4032123}},{"type":"Feature","geometry":{"type":"Point","coordinates":[9.45551686765091,36.70466237201145,38.01636910159141]},"properties":{"name":"Ain Babbouch","IHPLC_ANN":1993,"IHPLC_SBV":125,"IHPLC_CAP":80000,"IHPLC_COU":159900,"IHPLC_DELE":"TESTOUR","IHPLC_SECT":"Sidi Ameur","IHPLC_N":"Ain Babbouch","X":540640,"Y":4061751}},{"type":"Feature","geometry":{"type":"Point","coordinates":[9.503926808310762,36.7068174426159,38.05593784339726]},"properties":{"name":"Ain El Graâ","IHPLC_ANN":1993,"IHPLC_SBV":145,"IHPLC_CAP":77000,"IHPLC_COU":179300,"IHPLC_DELE":"MEDJEZ EL BAB","IHPLC_SECT":"Toukaber","IHPLC_N":"Ain El Graâ","X":544962,"Y":4062011}},{"type":"Feature","geometry":{"type":"Point","coordinates":[9.155816099350961,36.38992257743171,36.90007233247161]},"properties":{"name":"O. El Mourra","IHPLC_ANN":1994,"IHPLC_SBV":240,"IHPLC_CAP":100000,"IHPLC_COU":190500,"IHPLC_DELE":"TEBOURSOUK","IHPLC_SECT":"Aïn Hammam","IHPLC_N":"O. El Mourra","X":513927,"Y":4026753}},{"type":"Feature","geometry":{"type":"Point","coordinates":[9.160330187230855,36.3955218818251,36.91941444762051]},"properties":{"name":"O. El Maleh","IHPLC_ANN":1994,"IHPLC_SBV":490,"IHPLC_CAP":160000,"IHPLC_COU":252100,"IHPLC_DELE":"TEBOURSOUK","IHPLC_SECT":"Aïn Hammam","IHPLC_N":"O. El Maleh","X":514331,"Y":4027374}},{"type":"Feature","geometry":{"type":"Point","coordinates":[9.590239361974756,36.71018064000636,38.12546595465392]},"properties":{"name":"O.Bou Satour","IHPLC_ANN":1994,"IHPLC_SBV":120,"IHPLC_CAP":50000,"IHPLC_COU":122300,"IHPLC_DELE":"MEDJEZ EL BAB","IHPLC_SECT":"Chouache","IHPLC_N":"O.Bou Satour","X":552669,"Y":4062429}},{"type":"Feature","geometry":{"type":"Point","coordinates":[9.513335056694881,36.70126429958293,38.04641000647098]},"properties":{"name":"O.Ben Issar","IHPLC_ANN":1994,"IHPLC_SBV":310,"IHPLC_CAP":125000,"IHPLC_COU":266000,"IHPLC_DELE":"MEDJEZ EL BAB","IHPLC_SECT":"Toukaber","IHPLC_N":"O.Ben Issar","X":545806,"Y":4061400}},{"type":"Feature","geometry":{"type":"Point","coordinates":[9.164187196180361,36.47572282774728,37.15537288598716]},"properties":{"name":"O. Ennemsha","IHPLC_ANN":1995,"IHPLC_SBV":350,"IHPLC_CAP":110000,"IHPLC_COU":268300,"IHPLC_DELE":"TEBOURSOUK","IHPLC_SECT":"Aïn melliti","IHPLC_N":"O. Ennemsha","X":514661,"Y":4036271}},{"type":"Feature","geometry":{"type":"Point","coordinates":[9.466802887350866,36.68927778658797,37.97971677035093]},"properties":{"name":"Ain Dhirwa","IHPLC_ANN":1995,"IHPLC_SBV":240,"IHPLC_CAP":88000,"IHPLC_COU":179500,"IHPLC_DELE":"TESTOUR","IHPLC_SECT":"Sidi Abdelaziz","IHPLC_N":"Ain Dhirwa","X":541656,"Y":4060049}},{"type":"Feature","geometry":{"type":"Point","coordinates":[9.250010740870799,36.5050420562551,37.29835652839392]},"properties":{"name":"O. El Brika","IHPLC_ANN":1996,"IHPLC_SBV":330,"IHPLC_CAP":143000,"IHPLC_COU":241000,"IHPLC_DELE":"TEBOURSOUK","IHPLC_SECT":"Bir Touta","IHPLC_N":"O. El Brika","X":522341,"Y":4039540}},{"type":"Feature","geometry":{"type":"Point","coordinates":[9.24997714571818,36.53689703422073,37.39079019799829]},"properties":{"name":"Ain Zorriss","IHPLC_ANN":1996,"IHPLC_SBV":170,"IHPLC_CAP":100000,"IHPLC_COU":132700,"IHPLC_DELE":"TEBOURSOUK","IHPLC_SECT":"Bir Touta","IHPLC_N":"Ain Zorriss","X":522329,"Y":4043073}},{"type":"Feature","geometry":{"type":"Point","coordinates":[9.452154865540123,36.6920459034825,37.97763553075492]},"properties":{"name":"Sidi Louati","IHPLC_ANN":1996,"IHPLC_SBV":80,"IHPLC_CAP":50000,"IHPLC_COU":84000,"IHPLC_DELE":"TESTOUR","IHPLC_SECT":"Sidi Abdelaziz","IHPLC_N":"Sidi Louati","X":540346,"Y":4060350}},{"type":"Feature","geometry":{"type":"Point","coordinates":[9.479635917009759,36.68524705278663,37.97691496182233]},"properties":{"name":"Ain Drajeh","IHPLC_ANN":1996,"IHPLC_SBV":80,"IHPLC_CAP":70000,"IHPLC_COU":158600,"IHPLC_DELE":"TESTOUR","IHPLC_SECT":"Sidi Abdelaziz","IHPLC_N":"Ain Drajeh","X":542805,"Y":4059608}},{"type":"Feature","geometry":{"type":"Point","coordinates":[9.499139785766602,36.693749788636545]},"properties":{"name":"O. El Mismash","IHPLC_ANN":1996,"IHPLC_SBV":210,"IHPLC_CAP":100000,"IHPLC_COU":151600,"IHPLC_DELE":"MEDJEZ EL BAB","IHPLC_SECT":"Toukaber","IHPLC_N":"O. El Mismash","X":544511,"Y":4060609}},{"type":"Feature","geometry":{"type":"Point","coordinates":[9.54598692780734,36.69185072845812,38.04183785337955]},"properties":{"name":"O. El Khinga","IHPLC_ANN":1996,"IHPLC_SBV":340,"IHPLC_CAP":125000,"IHPLC_COU":226800,"IHPLC_DELE":"MEDJEZ EL BAB","IHPLC_SECT":"Toukaber","IHPLC_N":"O. El Khinga","X":548729,"Y":4060372}},{"type":"Feature","geometry":{"type":"Point","coordinates":[9.172897338867186,36.40083631605131]},"properties":{"name":"El Kattoussia","IHPLC_ANN":1997,"IHPLC_SBV":100,"IHPLC_CAP":150000,"IHPLC_COU":262200,"IHPLC_DELE":"TEBOURSOUK","IHPLC_SECT":"Aïn Hammam","IHPLC_N":"El Kattoussia","X":515486,"Y":4028116}},{"type":"Feature","geometry":{"type":"Point","coordinates":[9.186941258035182,36.40883988551944,36.97608856484294]},"properties":{"name":"Bissnoussi","IHPLC_ANN":1997,"IHPLC_SBV":290,"IHPLC_CAP":175000,"IHPLC_COU":232300,"IHPLC_DELE":"TEBOURSOUK","IHPLC_SECT":"Aïn Hammam","IHPLC_N":"Bissnoussi","X":516714,"Y":4028856}},{"type":"Feature","geometry":{"type":"Point","coordinates":[9.465990139677745,36.62920837647407,37.8055674014613]},"properties":{"name":"O. El Guettar1","IHPLC_ANN":1997,"IHPLC_SBV":200,"IHPLC_CAP":90000,"IHPLC_COU":185500,"IHPLC_DELE":"TESTOUR","IHPLC_SECT":"Sidi Abdelaziz","IHPLC_N":"O. El Guettar1","X":541616,"Y":4053385}},{"type":"Feature","geometry":{"type":"Point","coordinates":[9.212346798361907,36.53235245952421,37.35221522394568]},"properties":{"name":"El Matria","IHPLC_ANN":1998,"IHPLC_SBV":280,"IHPLC_CAP":100000,"IHPLC_COU":177200,"IHPLC_DELE":"TEBOURSOUK","IHPLC_SECT":"Bir Touta","IHPLC_N":"El Matria","X":518962,"Y":4042561}},{"type":"Feature","geometry":{"type":"Point","coordinates":[9.3111225087886,36.83355211685813,38.28933534398675]},"properties":{"name":"O. El Mjarjif","IHPLC_ANN":1998,"IHPLC_SBV":30,"IHPLC_CAP":15000,"IHPLC_COU":30000,"IHPLC_DELE":"BEJA NORD","IHPLC_SECT":"Ksar Mesouar","IHPLC_N":"O. El Mjarjif","X":527696,"Y":4075997}},{"type":"Feature","geometry":{"type":"Point","coordinates":[9.47605848455433,36.70370959895659,38.02775210235268]},"properties":{"name":"O. El Guettar2","IHPLC_ANN":1998,"IHPLC_SBV":190,"IHPLC_CAP":76000,"IHPLC_COU":160400,"IHPLC_DELE":"TESTOUR","IHPLC_SECT":"Sidi Abdelaziz","IHPLC_N":"O. El Guettar2","X":542475,"Y":4061654}},{"type":"Feature","geometry":{"type":"Point","coordinates":[9.454264691161175,36.68308773638827,37.95321674179286]},"properties":{"name":"O. El Khamri","IHPLC_ANN":1998,"IHPLC_SBV":350,"IHPLC_CAP":200000,"IHPLC_COU":263700,"IHPLC_DELE":"TESTOUR","IHPLC_SECT":"Sidi Ameur","IHPLC_N":"O. El Khamri","X":540539,"Y":4059357}},{"type":"Feature","geometry":{"type":"Point","coordinates":[9.197141305508794,36.59879406964087,37.53462370764464]},"properties":{"name":"El Hamri","IHPLC_ANN":1999,"IHPLC_SBV":517,"IHPLC_CAP":240000,"IHPLC_COU":266300,"IHPLC_DELE":"BEJA SUD","IHPLC_SECT":"Mastouta","IHPLC_N":"El Hamri","X":517586,"Y":4049928}},{"type":"Feature","geometry":{"type":"Point","coordinates":[9.312487678280812,36.50907326437202,37.35242570284754]},"properties":{"name":"El Daoudi","IHPLC_ANN":1999,"IHPLC_SBV":214,"IHPLC_CAP":100000,"IHPLC_COU":169500,"IHPLC_DELE":"TEBOURSOUK","IHPLC_SECT":"Aïn jammala","IHPLC_N":"El Daoudi","X":527935,"Y":4040003}},{"type":"Feature","geometry":{"type":"Point","coordinates":[9.537506103515625,36.73241833203871]},"properties":{"name":"Ain El Ayoun","IHPLC_ANN":1999,"IHPLC_SBV":260,"IHPLC_CAP":200000,"IHPLC_COU":251000,"IHPLC_DELE":"MEDJEZ EL BAB","IHPLC_SECT":"Toukaber","IHPLC_N":"Ain El Ayoun","X":547930,"Y":4065048}},{"type":"Feature","geometry":{"type":"Point","coordinates":[9.312781808759665,36.83842873396797,38.3044921848923]},"properties":{"name":"Ain El Ghrab","IHPLC_ANN":2000,"IHPLC_SBV":91,"IHPLC_CAP":90000,"IHPLC_COU":197300,"IHPLC_DELE":"BEJA NORD","IHPLC_SECT":"Ksar Mesouar","IHPLC_N":"Ain El Ghrab","X":527842,"Y":4076538}},{"type":"Feature","geometry":{"type":"Point","coordinates":[9.513063699397769,36.62237574967357,37.81829733029008]},"properties":{"name":"S. Abdelaziz","IHPLC_ANN":2002,"IHPLC_SBV":0,"IHPLC_CAP":350000,"IHPLC_COU":0,"IHPLC_DELE":"TESTOUR","IHPLC_SECT":"Sidi Abdelaziz","IHPLC_N":"S. Abdelaziz","X":545829,"Y":4052649}},{"type":"Feature","geometry":{"type":"Point","coordinates":[9.372367858886719,36.4504226840071]},"properties":{"name":"Kebir","IHPLC_ANN":2002,"IHPLC_SBV":0,"IHPLC_CAP":130000,"IHPLC_COU":0,"IHPLC_DELE":"TESTOUR","IHPLC_SECT":"Aïn younes","IHPLC_N":"Kebir","X":533343,"Y":4033678}},{"type":"Feature","geometry":{"type":"Point","coordinates":[9.394963147066093,36.45866713065556,37.26234887819737]},"properties":{"name":"Cherif","IHPLC_ANN":2002,"IHPLC_SBV":0,"IHPLC_CAP":90000,"IHPLC_COU":0,"IHPLC_DELE":"TESTOUR","IHPLC_SECT":"Aïn younes","IHPLC_N":"Cherif","X":535343,"Y":4034439}},{"type":"Feature","geometry":{"type":"Point","coordinates":[9.298151105733087,36.77241535785844,38.10446526948363]},"properties":{"name":"Ain Chalou","IHPLC_ANN":2001,"IHPLC_SBV":0,"IHPLC_CAP":200000,"IHPLC_COU":0,"IHPLC_DELE":"BEJA NORD","IHPLC_SECT":"Munchar","IHPLC_N":"Ain Chalou","X":526560,"Y":4069211}},{"type":"Feature","geometry":{"type":"Point","coordinates":[9.079724830470571,36.71168773444261,37.7828194629401]},"properties":{"name":"Zarzoura","IHPLC_ANN":2001,"IHPLC_SBV":0,"IHPLC_CAP":400000,"IHPLC_COU":0,"IHPLC_DELE":"BEJA SUD","IHPLC_SECT":"Zouagha","IHPLC_N":"Zarzoura","X":507073,"Y":4062436}},{"type":"Feature","geometry":{"type":"Point","coordinates":[9.446525573730469,36.73035466665383]},"properties":{"name":"O. Zitoun","IHPLC_ANN":2002,"IHPLC_SBV":0,"IHPLC_CAP":100000,"IHPLC_COU":0,"IHPLC_DELE":"TESTOUR","IHPLC_SECT":"Oued Zarga","IHPLC_N":"O. Zitoun","X":539812,"Y":4064680}},{"type":"Feature","geometry":{"type":"Point","coordinates":[9.559466226747562,36.7870568203941,38.32564980722964]},"properties":{"name":"Bou Hammara","IHPLC_ANN":2003,"IHPLC_SBV":0,"IHPLC_CAP":450000,"IHPLC_COU":0,"IHPLC_DELE":"MEDJEZ EL BAB","IHPLC_SECT":"Ksa Echikh","IHPLC_N":"Bou Hammara","X":549871,"Y":4070940}},{"type":"Feature","geometry":{"type":"Point","coordinates":[9.571708441971918,36.79023480136788,38.34328986797482]},"properties":{"name":"Tadharra","IHPLC_ANN":2003,"IHPLC_SBV":0,"IHPLC_CAP":450000,"IHPLC_COU":0,"IHPLC_DELE":"MEDJEZ EL BAB","IHPLC_SECT":"Ksa Echikh","IHPLC_N":"Tadharra","X":550961,"Y":4071299}},{"type":"Feature","geometry":{"type":"Point","coordinates":[9.378976821899414,36.47216715283465]},"properties":{"name":"Fidh El Hajri","IHPLC_ANN":2004,"IHPLC_SBV":0,"IHPLC_CAP":150000,"IHPLC_COU":210000,"IHPLC_DELE":"TESTOUR","IHPLC_SECT":"Aïn Younes","IHPLC_N":"Fidh El Hajri","X":533892,"Y":4036063}},{"type":"Feature","geometry":{"type":"Point","coordinates":[9.475893279668398,36.56173392743066,37.61707567796111]},"properties":{"name":"O. Bou Neb","IHPLC_ANN":2004,"IHPLC_SBV":0,"IHPLC_CAP":160000,"IHPLC_COU":216000,"IHPLC_DELE":"TESTOUR","IHPLC_SECT":"Testour","IHPLC_N":"O. Bou Neb","X":542538,"Y":4045905}},{"type":"Feature","geometry":{"type":"Point","coordinates":[9.295389319770964,36.70014780041581,37.894073641859]},"properties":{"name":"El Yousr","IHPLC_ANN":2004,"IHPLC_SBV":0,"IHPLC_CAP":160000,"IHPLC_COU":187000,"IHPLC_DELE":"BEJA NORD","IHPLC_SECT":"M'khachbia","IHPLC_N":"El Yousr","X":526339,"Y":4061194}},{"type":"Feature","geometry":{"type":"Point","coordinates":[9.609266834022598,36.46450524002229,37.42770964186639]},"properties":{"name":"Sfaya","IHPLC_ANN":2006,"IHPLC_SBV":848,"IHPLC_CAP":210000,"IHPLC_COU":0,"IHPLC_DELE":"GOUBELLAT","IHPLC_SECT":"Bir El Ich","IHPLC_N":"Sfaya","X":554542,"Y":4035187}},{"type":"Feature","geometry":{"type":"Point","coordinates":[9.598617553710938,36.465471886798134]},"properties":{"name":"El Guettar","IHPLC_ANN":2006,"IHPLC_SBV":492,"IHPLC_CAP":160000,"IHPLC_COU":0,"IHPLC_DELE":"GOUBELLAT","IHPLC_SECT":"Bir El Ich","IHPLC_N":"El Guettar","X":553558,"Y":4035454}},{"type":"Feature","geometry":{"type":"Point","coordinates":[9.182186846646715,36.61236883988936,37.56390053685755]},"properties":{"name":"O. El Hamri","IHPLC_ANN":2007,"IHPLC_SBV":405,"IHPLC_CAP":190000,"IHPLC_COU":0,"IHPLC_DELE":"BEJA SUD","IHPLC_SECT":"Mastouta","IHPLC_N":"O. El Hamri","X":516245,"Y":4051432}},{"type":"Feature","geometry":{"type":"Point","coordinates":[9.416570663452148,36.455945666443775]},"properties":{"name":"Knana","IHPLC_ANN":2007,"IHPLC_SBV":375,"IHPLC_CAP":90000,"IHPLC_COU":0,"IHPLC_DELE":"TESTOUR","IHPLC_SECT":"Ain younes","IHPLC_N":"Knana","X":537293,"Y":4034288}},{"type":"Feature","geometry":{"type":"Point","coordinates":[9.346990681749432,36.52356693826567,37.41798708587885]},"properties":{"name":"Bortila","IHPLC_ANN":2007,"IHPLC_SBV":603,"IHPLC_CAP":214000,"IHPLC_COU":0,"IHPLC_DELE":"TESTOUR","IHPLC_SECT":"Ain younes","IHPLC_N":"Bortila","X":531019,"Y":4041622}},{"type":"Feature","geometry":{"type":"Point","coordinates":[9.072346687316895,36.951675173114715]},"properties":{"name":"Tabbouba","IHPLC_ANN":1988,"IHPLC_SBV":0,"IHPLC_CAP":30000,"IHPLC_COU":0,"IHPLC_DELE":"NEFZA","IHPLC_SECT":"Tebaba","IHPLC_N":"Tabbouba","X":506409,"Y":4089238}},{"type":"Feature","geometry":{"type":"Point","coordinates":[9.187390317424015,36.59149036361534,37.50691381189972]},"properties":{"name":"O. Loubine","IHPLC_ANN":2009,"IHPLC_SBV":0,"IHPLC_CAP":50000,"IHPLC_COU":0,"IHPLC_DELE":"BEJA SUD","IHPLC_SECT":"Sidi Smail","IHPLC_N":"O. Loubine","X":516715,"Y":4049117}},{"type":"Feature","geometry":{"type":"Point","coordinates":[9.201992030923174,36.66262648311308,37.72263758070767]},"properties":{"name":"O. Bidziriyya","IHPLC_ANN":2010,"IHPLC_SBV":0,"IHPLC_CAP":0,"IHPLC_COU":0,"IHPLC_DELE":"BEJA SUD","IHPLC_SECT":"Hammen sayyala","IHPLC_N":"O. Bidziriyya","X":518005,"Y":4057010}},{"type":"Feature","geometry":{"type":"Point","coordinates":[9.612233744589144,36.59672086182334,37.81300507578999]},"properties":{"name":"O. El Malah","IHPLC_ANN":2011,"IHPLC_SBV":0,"IHPLC_CAP":15,"IHPLC_COU":0,"IHPLC_DELE":"MEDJEZ EL BAB","IHPLC_SECT":"Sidi Errayes","IHPLC_N":"O. El Malah","X":554714,"Y":4049855}}]}